{
"type": "FeatureCollection",
"crs": { "type": "name", "properties": { "name": "urn:ogc:def:crs:OGC:1.3:CRS84" } },
"features": [
{ "type": "Feature", "properties": { "fid": "Azores.0", "Name": "Corvo"}, "geometry": { "type": "Point", "coordinates": [ -31.07, 39.67, 0.0 ] } },
{ "type": "Feature", "properties": { "fid": "Azores.1", "Name": "Fayal"}, "geometry": { "type": "Point", "coordinates": [ -28.73, 38.6, 0.0 ] } },
{ "type": "Feature", "properties": { "fid": "Azores.2", "Name": "Pico"}, "geometry": { "type": "Point", "coordinates": [ -28.4, 38.47, 0.0 ] } },
{ "type": "Feature", "properties": { "fid": "Azores.3", "Name": "San Jorge"}, "geometry": { "type": "Point", "coordinates": [ -28.08, 38.65, 0.0 ] } },
{ "type": "Feature", "properties": { "fid": "Azores.4", "Name": "Graciosa"}, "geometry": { "type": "Point", "coordinates": [ -27.97, 39.02, 0.0 ] } },
{ "type": "Feature", "properties": { "fid": "Azores.5", "Name": "Terceira"}, "geometry": { "type": "Point", "coordinates": [ -27.32, 38.73, 0.0 ] } },
{ "type": "Feature", "properties": { "fid": "Azores.6", "Name": "Don Joao de Castro Bank"}, "geometry": { "type": "Point", "coordinates": [ -26.63, 38.23, 0.0 ] } },
{ "type": "Feature", "properties": { "fid": "Azores.7", "Name": "Sete Cidades"}, "geometry": { "type": "Point", "coordinates": [ -25.78, 37.87, 0.0 ] } },
{ "type": "Feature", "properties": { "fid": "Azores.8", "Name": "Unnamed"}, "geometry": { "type": "Point", "coordinates": [ -25.67, 37.78, 0.0 ] } },
{ "type": "Feature", "properties": { "fid": "Azores.9", "Name": "Agua de Pau"}, "geometry": { "type": "Point", "coordinates": [ -25.47, 37.77, 0.0 ] } },
{ "type": "Feature", "properties": { "fid": "Azores.10", "Name": "Furnas"}, "geometry": { "type": "Point", "coordinates": [ -25.32, 37.77, 0.0 ] } },
{ "type": "Feature", "properties": { "fid": "Azores.11", "Name": "Monaco Bank"}, "geometry": { "type": "Point", "coordinates": [ -25.88, 37.6, 0.0 ] } }
]
}
