{
"type": "FeatureCollection",
"crs": { "type": "name", "properties": { "name": "urn:ogc:def:crs:OGC:1.3:CRS84" } },
"features": [
{ "type": "Feature", "properties": { "fid": "Hokkaido.0", "Name": "E-san", "Volcano_types_____   _Stratovolcano   _Calderas   _Pyroclastic_cone___": null }, "geometry": { "type": "Point", "coordinates": [ 141.17, 41.802, 0.0 ] } },
{ "type": "Feature", "properties": { "fid": "Hokkaido.1", "Name": "Komaga-take", "Volcano_types_____   _Stratovolcano   _Calderas   _Pyroclastic_cone___": null }, "geometry": { "type": "Point", "coordinates": [ 140.681, 42.061, 0.0 ] } },
{ "type": "Feature", "properties": { "fid": "Hokkaido.2", "Name": "Nigorigawa", "Volcano_types_____   _Stratovolcano   _Calderas   _Pyroclastic_cone___": null }, "geometry": { "type": "Point", "coordinates": [ 140.45, 42.12, 0.0 ] } },
{ "type": "Feature", "properties": { "fid": "Hokkaido.3", "Name": "Usu", "Volcano_types_____   _Stratovolcano   _Calderas   _Pyroclastic_cone___": null }, "geometry": { "type": "Point", "coordinates": [ 140.843, 42.541, 0.0 ] } },
{ "type": "Feature", "properties": { "fid": "Hokkaido.4", "Name": "Niseko", "Volcano_types_____   _Stratovolcano   _Calderas   _Pyroclastic_cone___": null }, "geometry": { "type": "Point", "coordinates": [ 140.63, 42.88, 0.0 ] } },
{ "type": "Feature", "properties": { "fid": "Hokkaido.5", "Name": "Yotei", "Volcano_types_____   _Stratovolcano   _Calderas   _Pyroclastic_cone___": null }, "geometry": { "type": "Point", "coordinates": [ 140.815, 42.83, 0.0 ] } },
{ "type": "Feature", "properties": { "fid": "Hokkaido.6", "Name": "Shiribetsu", "Volcano_types_____   _Stratovolcano   _Calderas   _Pyroclastic_cone___": null }, "geometry": { "type": "Point", "coordinates": [ 140.916, 42.767, 0.0 ] } },
{ "type": "Feature", "properties": { "fid": "Hokkaido.7", "Name": "Kuttara", "Volcano_types_____   _Stratovolcano   _Calderas   _Pyroclastic_cone___": null }, "geometry": { "type": "Point", "coordinates": [ 141.163, 42.489, 0.0 ] } },
{ "type": "Feature", "properties": { "fid": "Hokkaido.8", "Name": "Shikotsu", "Volcano_types_____   _Stratovolcano   _Calderas   _Pyroclastic_cone___": null }, "geometry": { "type": "Point", "coordinates": [ 141.38, 42.688, 0.0 ] } },
{ "type": "Feature", "properties": { "fid": "Hokkaido.9", "Name": "Rishiri", "Volcano_types_____   _Stratovolcano   _Calderas   _Pyroclastic_cone___": null }, "geometry": { "type": "Point", "coordinates": [ 141.25, 45.18, 0.0 ] } },
{ "type": "Feature", "properties": { "fid": "Hokkaido.10", "Name": "Tokachi", "Volcano_types_____   _Stratovolcano   _Calderas   _Pyroclastic_cone___": null }, "geometry": { "type": "Point", "coordinates": [ 142.69, 43.416, 0.0 ] } },
{ "type": "Feature", "properties": { "fid": "Hokkaido.11", "Name": "Daisetsu", "Volcano_types_____   _Stratovolcano   _Calderas   _Pyroclastic_cone___": null }, "geometry": { "type": "Point", "coordinates": [ 142.858, 43.661, 0.0 ] } },
{ "type": "Feature", "properties": { "fid": "Hokkaido.12", "Name": "Nipesotsu-Upepesanke", "Volcano_types_____   _Stratovolcano   _Calderas   _Pyroclastic_cone___": null }, "geometry": { "type": "Point", "coordinates": [ 143.036, 43.453, 0.0 ] } },
{ "type": "Feature", "properties": { "fid": "Hokkaido.13", "Name": "Shikaribetsu Group", "Volcano_types_____   _Stratovolcano   _Calderas   _Pyroclastic_cone___": null }, "geometry": { "type": "Point", "coordinates": [ 143.096, 43.312, 0.0 ] } },
{ "type": "Feature", "properties": { "fid": "Hokkaido.14", "Name": "Akan", "Volcano_types_____   _Stratovolcano   _Calderas   _Pyroclastic_cone___": null }, "geometry": { "type": "Point", "coordinates": [ 144.013, 43.384, 0.0 ] } },
{ "type": "Feature", "properties": { "fid": "Hokkaido.15", "Name": "Kutcharo", "Volcano_types_____   _Stratovolcano   _Calderas   _Pyroclastic_cone___": null }, "geometry": { "type": "Point", "coordinates": [ 144.443, 43.608, 0.0 ] } },
{ "type": "Feature", "properties": { "fid": "Hokkaido.16", "Name": "Mashu", "Volcano_types_____   _Stratovolcano   _Calderas   _Pyroclastic_cone___": null }, "geometry": { "type": "Point", "coordinates": [ 144.565, 43.57, 0.0 ] } },
{ "type": "Feature", "properties": { "fid": "Hokkaido.17", "Name": "Rausu", "Volcano_types_____   _Stratovolcano   _Calderas   _Pyroclastic_cone___": null }, "geometry": { "type": "Point", "coordinates": [ 145.126, 44.073, 0.0 ] } },
{ "type": "Feature", "properties": { "fid": "Hokkaido.18", "Name": "Shiretoko-Iwo-zan", "Volcano_types_____   _Stratovolcano   _Calderas   _Pyroclastic_cone___": null }, "geometry": { "type": "Point", "coordinates": [ 145.165, 44.131, 0.0 ] } }
]
}
