{
"type": "FeatureCollection",
"crs": { "type": "name", "properties": { "name": "urn:ogc:def:crs:OGC:1.3:CRS84" } },
"features": [
{ "type": "Feature", "properties": { "fid": "Nicaragua.0", "Name": "San Cristóbal"}, "geometry": { "type": "Point", "coordinates": [ -87.004, 12.702, 0.0 ] } },
{ "type": "Feature", "properties": { "fid": "Nicaragua.1", "Name": "Telica"}, "geometry": { "type": "Point", "coordinates": [ -86.845, 12.602, 0.0 ] } },
{ "type": "Feature", "properties": { "fid": "Nicaragua.2", "Name": "Rota"}, "geometry": { "type": "Point", "coordinates": [ -86.75, 12.55, 0.0 ] } },
{ "type": "Feature", "properties": { "fid": "Nicaragua.3", "Name": "Cerro Negro"}, "geometry": { "type": "Point", "coordinates": [ -86.702, 12.506, 0.0 ] } },
{ "type": "Feature", "properties": { "fid": "Nicaragua.4", "Name": "Las Pilas"}, "geometry": { "type": "Point", "coordinates": [ -86.688, 12.495, 0.0 ] } },
{ "type": "Feature", "properties": { "fid": "Nicaragua.5", "Name": "Momotombo"}, "geometry": { "type": "Point", "coordinates": [ -86.54, 12.422, 0.0 ] } },
{ "type": "Feature", "properties": { "fid": "Nicaragua.6", "Name": "Apoyeque"}, "geometry": { "type": "Point", "coordinates": [ -86.342, 12.242, 0.0 ] } },
{ "type": "Feature", "properties": { "fid": "Nicaragua.7", "Name": "Nejapa-Miraflores"}, "geometry": { "type": "Point", "coordinates": [ -86.32, 12.12, 0.0 ] } },
{ "type": "Feature", "properties": { "fid": "Nicaragua.8", "Name": "Masaya"}, "geometry": { "type": "Point", "coordinates": [ -86.161, 11.984, 0.0 ] } },
{ "type": "Feature", "properties": { "fid": "Nicaragua.9", "Name": "Granada"}, "geometry": { "type": "Point", "coordinates": [ -85.98, 11.92, 0.0 ] } },
{ "type": "Feature", "properties": { "fid": "Nicaragua.10", "Name": "Mombacho"}, "geometry": { "type": "Point", "coordinates": [ -85.968, 11.826, 0.0 ] } },
{ "type": "Feature", "properties": { "fid": "Nicaragua.11", "Name": "Zapatera"}, "geometry": { "type": "Point", "coordinates": [ -85.82, 11.73, 0.0 ] } },
{ "type": "Feature", "properties": { "fid": "Nicaragua.12", "Name": "Concepción"}, "geometry": { "type": "Point", "coordinates": [ -85.622, 11.538, 0.0 ] } },
{ "type": "Feature", "properties": { "fid": "Nicaragua.13", "Name": "Maderas"}, "geometry": { "type": "Point", "coordinates": [ -85.515, 11.446, 0.0 ] } },
{ "type": "Feature", "properties": { "fid": "Nicaragua.14", "Name": "Estelí"}, "geometry": { "type": "Point", "coordinates": [ -86.4, 13.17, 0.0 ] } },
{ "type": "Feature", "properties": { "fid": "Nicaragua.15", "Name": "Cerro el Ciguatepe"}, "geometry": { "type": "Point", "coordinates": [ -86.142, 12.53, 0.0 ] } },
{ "type": "Feature", "properties": { "fid": "Nicaragua.16", "Name": "Las Lajas"}, "geometry": { "type": "Point", "coordinates": [ -85.73, 12.3, 0.0 ] } },
{ "type": "Feature", "properties": { "fid": "Nicaragua.17", "Name": "Volcán Azul"}, "geometry": { "type": "Point", "coordinates": [ -83.87, 12.53, 0.0 ] } }
]
}
